{
  "destinations": [
    {
      "name": "New York City",
      "state": "New York",
      "city": "New York",
      "country": "United States",
      "locale": {
        "lat": "40.7128",
        "long": "-74.0060"
      }
    },
    {
      "name": "Paris",
      "state": "Île-de-France",
      "city": "Paris",
      "country": "France",
      "locale": {
        "lat": "48.8566",
        "long": "2.3522"
      }
    },
    {
      "name": "Tokyo",
      "state": "Kantō",
      "city": "Tokyo",
      "country": "Japan",
      "locale": {
        "lat": "35.6895",
        "long": "139.6917"
      }
    },
    {
      "name": "Rio de Janeiro",
      "state": "Rio de Janeiro",
      "city": "Rio de Janeiro",
      "country": "Brazil",
      "locale": {
        "lat": "-22.9068",
        "long": "-43.1729"
      }
    },
    {
      "name": "Sydney",
      "state": "New South Wales",
      "city": "Sydney",
      "country": "Australia",
      "locale": {
        "lat": "-33.8688",
        "long": "151.2093"
      }
    }
  ]
}
